{"type":"FeatureCollection","features":[{"type":"Feature","properties":{"name":"Projeto exemplo 1 — PA JUERANA","municipio":"SAO MATEUS"},"geometry":{"type":"Point","coordinates":[-40.240697520681834,-18.750065568636355]}},{"type":"Feature","properties":{"name":"Projeto exemplo 2 — PA VALDICIO BARBOSA DOS SANTOS","municipio":"CONCEICAO DA BARRA"},"geometry":{"type":"Point","coordinates":[-39.866661784054365,-18.282661750247183]}},{"type":"Feature","properties":{"name":"Projeto exemplo 3 — PA CHAPADÃO DO RIO QUARTEL","municipio":"LINHARES"},"geometry":{"type":"Point","coordinates":[-40.23118454974359,-19.520228464871796]}},{"type":"Feature","properties":{"name":"Projeto exemplo 4 — PA GUANABARA","municipio":"SAO MATEUS"},"geometry":{"type":"Point","coordinates":[-40.06563702018519,-18.48887073111111]}},{"type":"Feature","properties":{"name":"Projeto exemplo 5 — PA GEORGINA","municipio":"SAO MATEUS"},"geometry":{"type":"Point","coordinates":[-40.214129480471705,-18.7784127778302]}},{"type":"Feature","properties":{"name":"Projeto exemplo 6 — PA PONTAL DO JUNDIÁ","municipio":"CONCEICAO DA BARRA"},"geometry":{"type":"Point","coordinates":[-39.91649183785715,-18.39237871488096]}},{"type":"Feature","properties":{"name":"Projeto exemplo 7 — PA NOVA ESPERANÇA","municipio":"ARACRUZ"},"geometry":{"type":"Point","coordinates":[-40.058640689,-19.656265118791676]}},{"type":"Feature","properties":{"name":"Projeto exemplo 8 — PA PAULO VINHAS","municipio":"CONCEICAO DA BARRA"},"geometry":{"type":"Point","coordinates":[-39.78044309961208,-18.36336939896552]}}],"metadata":{"source":"Pontos derivados de assentamentos INCRA na região do Rio Doce (exemplos para o mapa)"}}